[
    {
        "name": "SAN MATEO",
        "State": "California",
        "ZIP": "94403-3594",
        "Country": "United States",
        "lng": "-122.297688",
        "lat": "37.542526",
        "Geocoded Country": "United States"
    },
    {
        "name": "Banigama",
        "State": "Koshi Province",
        "ZIP": "56613",
        "Country": "Nepal",
        "lng": "87.362737",
        "lat": "26.5865051",
        "Geocoded Country": "Nepal"
    },
    {
        "name": "Gorakhpur",
        "State": "Uttar Pradesh",
        "ZIP": "273004",
        "Country": "India",
        "lng": "83.3764524",
        "lat": "26.7903849",
        "Geocoded Country": "India"
    },
    {
        "name": "Carlsbad",
        "State": "California",
        "ZIP": "92009",
        "Country": "United States",
        "lng": "-117.251811",
        "lat": "33.1138912",
        "Geocoded Country": "United States"
    },
    {
        "name": "brookline",
        "State": "MA",
        "ZIP": "2445",
        "Country": "United States",
        "lng": "-71.1359252",
        "lat": "42.3382415",
        "Geocoded Country": "United States"
    },
    {
        "name": "Sudbury",
        "State": "Massachusetts",
        "ZIP": "1776",
        "Country": "United States",
        "lng": "-71.4781346",
        "lat": "42.3682259",
        "Geocoded Country": "United States"
    },
    {
        "name": "Greater London",
        "State": "England",
        "ZIP": "SW14 8PJ",
        "Country": "United Kingdom",
        "lng": "-0.2595904",
        "lat": "51.4657491",
        "Geocoded Country": "United Kingdom"
    },
    {
        "name": "Surabaya",
        "State": "Jawa Timur",
        "ZIP": "60213",
        "Country": "Indonesia",
        "lng": "112.6721398",
        "lat": "-7.2934683",
        "Geocoded Country": "Indonesia"
    },
    {
        "name": "Bridgewater",
        "State": "New Jersey",
        "ZIP": "8807",
        "Country": "United States",
        "lng": "-74.672996",
        "lat": "40.5831555",
        "Geocoded Country": "United States"
    },
    {
        "name": "Kathmandu",
        "State": "Nepal",
        "ZIP": "44703",
        "Country": "Nepal",
        "lng": "85.3420486",
        "lat": "27.6915196",
        "Geocoded Country": "Nepal"
    },
    {
        "name": "Quezon name",
        "State": "National Capital Region",
        "ZIP": "1115",
        "Country": "Philippines",
        "lng": "121.0926721",
        "lat": "14.6760286",
        "Geocoded Country": "Philippines"
    },
    {
        "name": "Es Grau",
        "State": "Illes Balears",
        "ZIP": "7701",
        "Country": "Spain",
        "lng": "4.269904",
        "lat": "39.9496559",
        "Geocoded Country": "Spain"
    },
    {
        "name": "alkhan ",
        "State": "\u0627\u0644\u0634\u0627\u0631\u0642\u0629 - Sharjah",
        "ZIP": "na",
        "Country": "United Arab Emirates",
        "lng": "55.369528",
        "lat": "25.3289699",
        "Geocoded Country": "United Arab Emirates"
    },
    {
        "name": "Urbana",
        "State": "Illinois ",
        "ZIP": "61801",
        "Country": "USA",
        "lng": "-88.2189833",
        "lat": "40.1069473",
        "Geocoded Country": "United States"
    },
    {
        "name": "Bally",
        "State": "WestBengal",
        "ZIP": "711206",
        "Country": "India",
        "lng": "88.3341989",
        "lat": "22.6431525",
        "Geocoded Country": "India"
    },
    {
        "name": "Mission Bay",
        "State": "Auckland",
        "ZIP": "1071",
        "Country": "New Zealand",
        "lng": "174.8321684",
        "lat": "-36.8545455",
        "Geocoded Country": "New Zealand"
    },
    {
        "name": "Zhongli",
        "State": "Taoyuan",
        "ZIP": "320",
        "Country": "Taiwan",
        "lng": "121.2472175",
        "lat": "24.9717677",
        "Geocoded Country": "Taiwan"
    },
    {
        "name": "Taichung",
        "State": "Taiwan",
        "ZIP": "404",
        "Country": "Taiwan",
        "lng": "120.6807083",
        "lat": "24.1589999",
        "Geocoded Country": "Taiwan"
    },
    {
        "name": "Zirakpur",
        "State": "Punjab",
        "ZIP": "140603",
        "Country": "India",
        "lng": "76.8314149",
        "lat": "30.6424654",
        "Geocoded Country": "India"
    },
    {
        "name": "Surrey",
        "State": "BC",
        "ZIP": "V3R 6M9",
        "Country": "Canada",
        "lng": "-122.8222039",
        "lat": "49.1863204",
        "Geocoded Country": "Canada"
    },
    {
        "name": "Hanamkonda",
        "State": "Telangana",
        "ZIP": "506004",
        "Country": "India",
        "lng": "79.528559",
        "lat": "17.99045",
        "Geocoded Country": "India"
    },
    {
        "name": "Sammamish",
        "State": "WA",
        "ZIP": "98074-6507",
        "Country": "United States",
        "lng": "-122.032944",
        "lat": "47.6221428",
        "Geocoded Country": "United States"
    },
    {
        "name": "Southampton",
        "State": "England",
        "ZIP": "SO15 7PU",
        "Country": "United Kingdom",
        "lng": "-1.4184874",
        "lat": "50.923032",
        "Geocoded Country": "United Kingdom"
    },
    {
        "name": "Noida",
        "State": "Uttar Pradesh ",
        "ZIP": "201301",
        "Country": "India",
        "lng": "77.37799",
        "lat": "28.6143968",
        "Geocoded Country": "India"
    },
    {
        "name": "Cork",
        "State": "Munster",
        "ZIP": "T12X8FT",
        "Country": "Ireland",
        "lng": "-8.5032811",
        "lat": "51.8740449",
        "Geocoded Country": "Ireland"
    },
    {
        "name": "Baheri",
        "State": "Uttar Pradesh",
        "ZIP": "243201",
        "Country": "India",
        "lng": "79.4956974",
        "lat": "28.7780401",
        "Geocoded Country": "India"
    },
    {
        "name": "secunderabad",
        "State": "telangana",
        "ZIP": "50078",
        "Country": "india",
        "lng": "78.4982741",
        "lat": "17.4399295",
        "Geocoded Country": "India"
    },
    {
        "name": "Tracy",
        "State": "CA",
        "ZIP": "95391-8825",
        "Country": "United States",
        "lng": "-121.5400076",
        "lat": "37.7604478",
        "Geocoded Country": "United States"
    },
    {
        "name": "Singapore",
        "State": "Singapore",
        "ZIP": "823110",
        "Country": "Singapore",
        "lng": "103.9100869",
        "lat": "1.3954781",
        "Geocoded Country": "Singapore"
    },
    {
        "name": "Toronto",
        "State": "ON",
        "ZIP": "M1V 2A5",
        "Country": "Canada",
        "lng": "-79.2636875",
        "lat": "43.8216714",
        "Geocoded Country": "Canada"
    },
    {
        "name": "Epanomi",
        "State": "Thessaloniki",
        "ZIP": "57500",
        "Country": "Greece",
        "lng": "22.9243484",
        "lat": "40.424327",
        "Geocoded Country": "Greece"
    },
    {
        "name": "Edmonton",
        "State": "Alberta",
        "ZIP": "T6X 0T1",
        "Country": "Canada",
        "lng": "-113.4327255",
        "lat": "53.4245309",
        "Geocoded Country": "Canada"
    },
    {
        "name": "Irvine",
        "State": "CA",
        "ZIP": "92606-8908",
        "Country": "United States",
        "lng": "-117.8084187",
        "lat": "33.692677",
        "Geocoded Country": "United States"
    },
    {
        "name": "Highland park",
        "State": "IL",
        "ZIP": "60035",
        "Country": "US",
        "lng": "-87.792467",
        "lat": "42.1906475",
        "Geocoded Country": "United States"
    },
    {
        "name": "Flagstaff",
        "State": "AZ",
        "ZIP": "86004",
        "Country": "United States",
        "lng": "-111.5705388",
        "lat": "35.1961367",
        "Geocoded Country": "United States"
    },
    {
        "name": "Oakton",
        "State": "VA",
        "ZIP": "22124-2309",
        "Country": "United States",
        "lng": "-77.3576784",
        "lat": "38.889505",
        "Geocoded Country": "United States"
    },
    {
        "name": "Martinez",
        "State": "California",
        "ZIP": "94553",
        "Country": "United States",
        "lng": "-122.1408296",
        "lat": "38.0185977",
        "Geocoded Country": "United States"
    },
    {
        "name": "Tlajomulco de Z\u00fa\u00f1iga ",
        "State": "Jalisco",
        "ZIP": "45641",
        "Country": "Mexico",
        "lng": "-103.4178441",
        "lat": "20.457836",
        "Geocoded Country": "Mexico"
    },
    {
        "name": "Aspendale Gardens",
        "State": "VIC",
        "ZIP": "3195",
        "Country": "Australia",
        "lng": "145.1171023",
        "lat": "-38.0213691",
        "Geocoded Country": "Australia"
    },
    {
        "name": "Camas",
        "State": "WA",
        "ZIP": "98607",
        "Country": "United States",
        "lng": "-122.476677",
        "lat": "45.5963998",
        "Geocoded Country": "United States"
    },
    {
        "name": "Brossard",
        "State": "Quebec",
        "ZIP": "J4X 3A2",
        "Country": "Canada",
        "lng": "-73.4888432",
        "lat": "45.4337848",
        "Geocoded Country": "Canada"
    },
    {
        "name": "Greenfield Park",
        "State": "Quebec",
        "ZIP": "J4V 3P4",
        "Country": "Canada",
        "lng": "-73.4776695",
        "lat": "45.4871203",
        "Geocoded Country": "Canada"
    },
    {
        "name": "Zirakpur",
        "State": "Punjab",
        "ZIP": "140603",
        "Country": "India",
        "lng": "76.8132087",
        "lat": "30.6338957",
        "Geocoded Country": "India"
    },
    {
        "name": "Mount Pleasant",
        "State": "NSW",
        "ZIP": "2519",
        "Country": "Australia",
        "lng": "150.8701284",
        "lat": "-34.3913564",
        "Geocoded Country": "Australia"
    },
    {
        "name": "Westford",
        "State": "VT",
        "ZIP": "5494",
        "Country": "United States",
        "lng": "-73.032677",
        "lat": "44.6298021",
        "Geocoded Country": "United States"
    },
    {
        "name": "Ottawa",
        "State": "ON",
        "ZIP": "K2T 0G1",
        "Country": "Canada",
        "lng": "-75.9331821",
        "lat": "45.3225463",
        "Geocoded Country": "Canada"
    },
    {
        "name": "Hamilton",
        "State": "Ontario",
        "ZIP": "L8K 4E9",
        "Country": "Canada",
        "lng": "-79.7811417",
        "lat": "43.2254856",
        "Geocoded Country": "Canada"
    },
    {
        "name": "Sunnyvale",
        "State": "CA",
        "ZIP": "94087-4857",
        "Country": "United States",
        "lng": "-122.0146094",
        "lat": "37.3400813",
        "Geocoded Country": "United States"
    },
    {
        "name": "El Paso",
        "State": "TX",
        "ZIP": "79938-2500",
        "Country": "United States",
        "lng": "-106.2268466",
        "lat": "31.7962757",
        "Geocoded Country": "United States"
    },
    {
        "name": "Singapore",
        "State": "Singapore",
        "ZIP": "159961",
        "Country": "Singapore",
        "lng": "103.8050985",
        "lat": "1.2894135",
        "Geocoded Country": "Singapore"
    },
    {
        "name": "Wellesley",
        "State": "MA",
        "ZIP": "02482-4435",
        "Country": "United States",
        "lng": "-71.3074428",
        "lat": "42.3004444",
        "Geocoded Country": "United States"
    },
    {
        "name": "Oakville",
        "State": "Ontario",
        "ZIP": "L6H6B4",
        "Country": "Canada",
        "lng": "-79.716097",
        "lat": "43.4746724",
        "Geocoded Country": "Canada"
    },
    {
        "name": "Palo Alto",
        "State": "California",
        "ZIP": "94306",
        "Country": "United States",
        "lng": "-122.1312473",
        "lat": "37.4071821",
        "Geocoded Country": "United States"
    },
    {
        "name": "Fremont",
        "State": "CA",
        "ZIP": "94539-5771",
        "Country": "United States",
        "lng": "-121.9271988",
        "lat": "37.5322828",
        "Geocoded Country": "United States"
    },
    {
        "name": "Wellesley",
        "State": "Massachusetts",
        "ZIP": "02482-5708",
        "Country": "United States",
        "lng": "-71.2963529",
        "lat": "42.292532",
        "Geocoded Country": "United States"
    },
    {
        "name": "Singapore",
        "State": "Singapore",
        "ZIP": "5000",
        "Country": "Singapore",
        "lng": "103.913797",
        "lat": "1.393896",
        "Geocoded Country": "Singapore"
    },
    {
        "name": "Stockton-on-Tees",
        "State": "Durham",
        "ZIP": "TS18 5LY",
        "Country": "United Kingdom",
        "lng": "-1.3547776",
        "lat": "54.5553364",
        "Geocoded Country": "United Kingdom"
    },
    {
        "name": "Phoenix",
        "State": "AZ",
        "ZIP": "85041",
        "Country": "United States",
        "lng": "-112.1092288",
        "lat": "33.3980576",
        "Geocoded Country": "United States"
    },
    {
        "name": "Santiago",
        "State": "Santiago Metropolitan",
        "ZIP": "7790802",
        "Country": "Chile",
        "lng": "-70.5889958",
        "lat": "-33.4531382",
        "Geocoded Country": "Chile"
    },
    {
        "name": "Bridgewater",
        "State": "NJ",
        "ZIP": "8807",
        "Country": "United States",
        "lng": "-74.5762912",
        "lat": "40.5659247",
        "Geocoded Country": "United States"
    },
    {
        "name": "Lagunitas ",
        "State": "CA",
        "ZIP": "94938",
        "Country": "United States",
        "lng": "-122.702232",
        "lat": "38.0217258",
        "Geocoded Country": "United States"
    },
    {
        "name": "Leicester",
        "State": "England",
        "ZIP": "LE4 0SP",
        "Country": "United Kingdom",
        "lng": "-1.1538802",
        "lat": "52.6601805",
        "Geocoded Country": "United Kingdom"
    },
    {
        "name": "Washington",
        "State": "District of Columbia",
        "ZIP": "20008",
        "Country": "United States",
        "lng": "-77.0573199",
        "lat": "38.928964",
        "Geocoded Country": "United States"
    },
    {
        "name": "Bridgewater",
        "State": "NJ",
        "ZIP": "8807",
        "Country": "United States",
        "lng": "-74.6679879",
        "lat": "40.586995",
        "Geocoded Country": "United States"
    },
    {
        "name": "Oakville",
        "State": "Ontario",
        "ZIP": "L6M5L7",
        "Country": "Canada",
        "lng": "-79.7500862",
        "lat": "43.4188421",
        "Geocoded Country": "Canada"
    },
    {
        "name": "Hercules",
        "State": "CA",
        "ZIP": "94547-2051",
        "Country": "United States",
        "lng": "-122.2324354",
        "lat": "37.9894951",
        "Geocoded Country": "United States"
    },
    {
        "name": "Sourcieux-les-Mines",
        "State": "Auvergne-Rh\u00f4ne-Alpes",
        "ZIP": "69210",
        "Country": "France",
        "lng": "4.6170732",
        "lat": "45.8060512",
        "Geocoded Country": "France"
    },
    {
        "name": "Kigali",
        "State": "kicukiro",
        "ZIP": "0",
        "Country": "Rwanda",
        "lng": "30.0925195",
        "lat": "-1.9902521",
        "Geocoded Country": "Rwanda"
    },
    {
        "name": "Franklin",
        "State": "Wisconsin",
        "ZIP": "53132",
        "Country": "United States",
        "lng": "-87.9777317",
        "lat": "42.8957604",
        "Geocoded Country": "United States"
    },
    {
        "name": "Montpelier",
        "State": "VT",
        "ZIP": "05602-3702",
        "Country": "United States",
        "lng": "-72.5669794",
        "lat": "44.2454763",
        "Geocoded Country": "United States"
    },
    {
        "name": "Ryki",
        "State": "Lubelskie",
        "ZIP": "08-500",
        "Country": "Poland",
        "lng": "21.9685374",
        "lat": "51.6655565",
        "Geocoded Country": "Poland"
    },
    {
        "name": "Epanomi",
        "State": "Thessaloniki",
        "ZIP": "57500",
        "Country": "Greece",
        "lng": "22.9331124",
        "lat": "40.4232298",
        "Geocoded Country": "Greece"
    },
    {
        "name": "East Boston",
        "State": "Massachusetts",
        "ZIP": "2128",
        "Country": "United States",
        "lng": "-71.0422583",
        "lat": "42.3698149",
        "Geocoded Country": "United States"
    },
    {
        "name": "Cambridgeshire",
        "State": "Cambridgeshire",
        "ZIP": "CB1 7TF",
        "Country": "United Kingdom",
        "lng": "0.146047",
        "lat": "52.1827971",
        "Geocoded Country": "United Kingdom"
    },
    {
        "name": "Aldie",
        "State": "VA",
        "ZIP": "20105",
        "Country": "United States",
        "lng": "-77.5569919",
        "lat": "38.9231786",
        "Geocoded Country": "United States"
    },
    {
        "name": "Manila name",
        "State": "Metro Manila",
        "ZIP": "1129",
        "Country": "Philippines",
        "lng": "120.9851865",
        "lat": "14.5913112",
        "Geocoded Country": "Philippines"
    },
    {
        "name": "Madrid",
        "State": "MD",
        "ZIP": "28044",
        "Country": "Spain",
        "lng": "-3.76602",
        "lat": "40.3848399",
        "Geocoded Country": "Spain"
    },
    {
        "name": "Williston",
        "State": "Vermont",
        "ZIP": "5495",
        "Country": "United States",
        "lng": "-73.0848423",
        "lat": "44.3936058",
        "Geocoded Country": "United States"
    },
    {
        "name": "Bloomington",
        "State": "Illinois",
        "ZIP": "61704",
        "Country": "United States",
        "lng": "-88.9069867",
        "lat": "40.454363",
        "Geocoded Country": "United States"
    },
    {
        "name": "Bhopal",
        "State": "MADHYA PRADESH",
        "ZIP": "462023",
        "Country": "India",
        "lng": "77.456819",
        "lat": "23.2709749",
        "Geocoded Country": "India"
    },
    {
        "name": "benguluru",
        "State": "Karnataka",
        "ZIP": "560100",
        "Country": "India",
        "lng": "77.6573938",
        "lat": "12.8482738",
        "Geocoded Country": "India"
    },
    {
        "name": "San Mateo",
        "State": "California",
        "ZIP": "94403-3593",
        "Country": "United States",
        "lng": "-122.297688",
        "lat": "37.542526",
        "Geocoded Country": "United States"
    },
    {
        "name": "Guntur",
        "State": "Andhra Pradesh",
        "ZIP": "522006",
        "Country": "india",
        "lng": "80.4121542",
        "lat": "16.3142034",
        "Geocoded Country": "India"
    },
    {
        "name": "Bengaluru",
        "State": "KA",
        "ZIP": "560036",
        "Country": "India",
        "lng": "77.716972",
        "lat": "13.0034245",
        "Geocoded Country": "India"
    },
    {
        "name": "Jebel Ali",
        "State": "Dubai",
        "ZIP": "11529",
        "Country": "United Arab Emirates",
        "lng": "55.0224772",
        "lat": "24.9620215",
        "Geocoded Country": "United Arab Emirates"
    },
    {
        "name": "Plano",
        "State": "TX",
        "ZIP": "75024-2316",
        "Country": "United States",
        "lng": "-96.7985833",
        "lat": "33.0865809",
        "Geocoded Country": "United States"
    },
    {
        "name": "Hajn\u00f3wka",
        "State": "Podlaskie",
        "ZIP": "17-200",
        "Country": "Poland",
        "lng": "23.4581236",
        "lat": "52.7367313",
        "Geocoded Country": "Poland"
    },
    {
        "name": "Katy",
        "State": "TX",
        "ZIP": "77494-3479",
        "Country": "United States",
        "lng": "-95.8427162",
        "lat": "29.712075",
        "Geocoded Country": "United States"
    },
    {
        "name": "Chatham",
        "State": "New Jersey",
        "ZIP": "7928",
        "Country": "United States",
        "lng": "-74.3834657",
        "lat": "40.7343139",
        "Geocoded Country": "United States"
    },
    {
        "name": "Victoriaville Central",
        "State": "QC",
        "ZIP": "G6P 1J2",
        "Country": "Canada",
        "lng": "-71.965623",
        "lat": "46.0650326",
        "Geocoded Country": "Canada"
    },
    {
        "name": "Nairobi",
        "State": "Nairobi",
        "ZIP": "100",
        "Country": "Kenya",
        "lng": "36.8219462",
        "lat": "-1.2920659",
        "Geocoded Country": "Kenya"
    },
    {
        "name": "Berlin",
        "State": "Berlin",
        "ZIP": "10717",
        "Country": "Germany",
        "lng": "13.3205889",
        "lat": "52.4890376",
        "Geocoded Country": "Germany"
    },
    {
        "name": "Suwanee",
        "State": "GA",
        "ZIP": "30024",
        "Country": "United States",
        "lng": "-84.0819079",
        "lat": "34.0640001",
        "Geocoded Country": "United States"
    },
    {
        "name": "Scarsdale",
        "State": "NY",
        "ZIP": "10583",
        "Country": "United States",
        "lng": "-73.8282168",
        "lat": "40.9989992",
        "Geocoded Country": "United States"
    },
    {
        "name": "Kenmore",
        "State": "WA",
        "ZIP": "98028",
        "Country": "US",
        "lng": "-122.2603983",
        "lat": "47.7668929",
        "Geocoded Country": "United States"
    },
    {
        "name": "Boisar",
        "State": "Maharashtra",
        "ZIP": "401501",
        "Country": "India",
        "lng": "72.7498202",
        "lat": "19.8048123",
        "Geocoded Country": "India"
    },
    {
        "name": "Faridabad",
        "State": "Haryana",
        "ZIP": "121001",
        "Country": "India",
        "lng": "77.2907517",
        "lat": "28.4081656",
        "Geocoded Country": "India"
    },
    {
        "name": "Brutten",
        "State": "Zurich",
        "ZIP": "8311",
        "Country": "Switzerland",
        "lng": "8.6775397",
        "lat": "47.4729806",
        "Geocoded Country": "Switzerland"
    },
    {
        "name": "Constitution Hill",
        "State": "NSW",
        "ZIP": "2145",
        "Country": "Australia",
        "lng": "150.9723056",
        "lat": "-33.7977318",
        "Geocoded Country": "Australia"
    },
    {
        "name": "Hamburg",
        "State": "",
        "ZIP": "22761",
        "Country": "Germany",
        "lng": "9.9106486",
        "lat": "53.5686337",
        "Geocoded Country": "Germany"
    },
    {
        "name": "West Midlands",
        "State": "England",
        "ZIP": "WV2 3JQ",
        "Country": "United Kingdom",
        "lng": "-2.1306056",
        "lat": "52.5710195",
        "Geocoded Country": "United Kingdom"
    },
    {
        "name": "Sunnyvale",
        "State": "CA",
        "ZIP": "94087-4924",
        "Country": "United States",
        "lng": "-122.0075816",
        "lat": "37.3419",
        "Geocoded Country": "United States"
    },
    {
        "name": "Los Altos Hills",
        "State": "CA",
        "ZIP": "94024",
        "Country": "United States",
        "lng": "-122.1132952",
        "lat": "37.3478998",
        "Geocoded Country": "United States"
    },
    {
        "name": "San Diego",
        "State": "CA",
        "ZIP": "92127-2823",
        "Country": "United States",
        "lng": "-117.1172034",
        "lat": "33.0233157",
        "Geocoded Country": "United States"
    },
    {
        "name": "Dhanbad",
        "State": "Jharkhand ",
        "ZIP": "828112",
        "Country": "India",
        "lng": "86.4012082",
        "lat": "23.7061693",
        "Geocoded Country": "India"
    },
    {
        "name": "Baniyas East",
        "State": "Abu Dhabi",
        "ZIP": "0",
        "Country": "United Arab Emirates",
        "lng": "54.6294415",
        "lat": "24.2983032",
        "Geocoded Country": "United Arab Emirates"
    },
    {
        "name": "Visakhapatnam",
        "State": "Andhra Pradesh",
        "ZIP": "530027",
        "Country": "India",
        "lng": "83.2162733",
        "lat": "17.7457703",
        "Geocoded Country": "India"
    },
    {
        "name": "Boxborough",
        "State": "Massachusetts",
        "ZIP": "01719-1010",
        "Country": "United States",
        "lng": "-71.5132531",
        "lat": "42.5068577",
        "Geocoded Country": "United States"
    },
    {
        "name": "Manassas",
        "State": "VA",
        "ZIP": "20111",
        "Country": "US",
        "lng": "-77.4295931",
        "lat": "38.7382048",
        "Geocoded Country": "United States"
    },
    {
        "name": "Saratoga",
        "State": "CA",
        "ZIP": "95070",
        "Country": "US",
        "lng": "-122.0334693",
        "lat": "37.2735936",
        "Geocoded Country": "United States"
    },
    {
        "name": "Santa Clara",
        "State": "California",
        "ZIP": "95050",
        "Country": "United States",
        "lng": "-121.9525104",
        "lat": "37.3308598",
        "Geocoded Country": "United States"
    },
    {
        "name": "Ashford",
        "State": "SA",
        "ZIP": "5035",
        "Country": "Australia",
        "lng": "138.5725111",
        "lat": "-34.9515064",
        "Geocoded Country": "Australia"
    },
    {
        "name": "Cincinnati",
        "State": "OH",
        "ZIP": "45224",
        "Country": "US",
        "lng": "-84.5252993",
        "lat": "39.2110056",
        "Geocoded Country": "United States"
    },
    {
        "name": "Toronto",
        "State": "Ontario",
        "ZIP": "M1V 2T7",
        "Country": "Canada",
        "lng": "-79.2898461",
        "lat": "43.8169115",
        "Geocoded Country": "Canada"
    },
    {
        "name": "Louisville",
        "State": "Kentucky",
        "ZIP": "40222",
        "Country": "United States",
        "lng": "-85.5842474",
        "lat": "38.2445092",
        "Geocoded Country": "United States"
    },
    {
        "name": "Jhusi",
        "State": "UP",
        "ZIP": "211019",
        "Country": "India",
        "lng": "81.9180846",
        "lat": "25.4199646",
        "Geocoded Country": "India"
    },
    {
        "name": "Brooklyn",
        "State": "NY",
        "ZIP": "11214-4511",
        "Country": "United States",
        "lng": "-74.0081625",
        "lat": "40.6063993",
        "Geocoded Country": "United States"
    },
    {
        "name": "Brookline",
        "State": "MA",
        "ZIP": "2446",
        "Country": "United States",
        "lng": "-71.1174642",
        "lat": "42.3372873",
        "Geocoded Country": "United States"
    },
    {
        "name": "Round Rock",
        "State": "TX",
        "ZIP": "78681-2603",
        "Country": "United States",
        "lng": "-97.7048928",
        "lat": "30.5343294",
        "Geocoded Country": "United States"
    },
    {
        "name": "Tambon Wichit",
        "State": "Phuket Province",
        "ZIP": "83000",
        "Country": "Thailand",
        "lng": "98.370599",
        "lat": "7.8831386",
        "Geocoded Country": "Thailand"
    },
    {
        "name": "Gasabo",
        "State": "Kigali",
        "ZIP": "0",
        "Country": "Rwanda",
        "lng": "30.0724745",
        "lat": "-1.8764189",
        "Geocoded Country": "Rwanda"
    },
    {
        "name": "Edmonton",
        "State": "Alberta",
        "ZIP": "T5T 3G8",
        "Country": "Canada",
        "lng": "-113.6275726",
        "lat": "53.5284041",
        "Geocoded Country": "Canada"
    },
    {
        "name": "San Jose",
        "State": "California",
        "ZIP": "95148",
        "Country": "United States",
        "lng": "-121.7932642",
        "lat": "37.320958",
        "Geocoded Country": "United States"
    },
    {
        "name": "Jebel Ali",
        "State": "Dubai",
        "ZIP": "11529",
        "Country": "United Arab Emirates",
        "lng": "55.0224772",
        "lat": "24.9620215",
        "Geocoded Country": "United Arab Emirates"
    },
    {
        "name": "Prosper",
        "State": "TX",
        "ZIP": "75078",
        "Country": "United States",
        "lng": "-96.756871",
        "lat": "33.231572",
        "Geocoded Country": "United States"
    },
    {
        "name": "Cartersville",
        "State": "Georgia",
        "ZIP": "30120",
        "Country": "United States",
        "lng": "-84.8164409",
        "lat": "34.1096865",
        "Geocoded Country": "United States"
    },
    {
        "name": "Tividale",
        "State": "England",
        "ZIP": "B69 1UJ",
        "Country": "United Kingdom",
        "lng": "-2.0532337",
        "lat": "52.5098447",
        "Geocoded Country": "United Kingdom"
    },
    {
        "name": "Pokhara",
        "State": "Gandaki Province",
        "ZIP": "33700",
        "Country": "Nepal",
        "lng": "83.9809748",
        "lat": "28.2534046",
        "Geocoded Country": "Nepal"
    },
    {
        "name": "North Attleboro",
        "State": "Massachusetts",
        "ZIP": "2760",
        "Country": "USA",
        "lng": "-71.3468091",
        "lat": "41.971814",
        "Geocoded Country": "United States"
    },
    {
        "name": "Kingsport",
        "State": "TN",
        "ZIP": "37660",
        "Country": "United States",
        "lng": "-82.4798505",
        "lat": "36.5598009",
        "Geocoded Country": "United States"
    },
    {
        "name": "Dubai",
        "State": "Dubai",
        "ZIP": "777",
        "Country": "United Arab Emirates",
        "lng": "55.3735534",
        "lat": "25.292727",
        "Geocoded Country": "United Arab Emirates"
    },
    {
        "name": "Hamilton",
        "State": "ON",
        "ZIP": "L8E 2S9",
        "Country": "Canada",
        "lng": "-79.7121157",
        "lat": "43.2191064",
        "Geocoded Country": "Canada"
    },
    {
        "name": "Bengaluru",
        "State": "KA",
        "ZIP": "560066",
        "Country": "India",
        "lng": "77.7427492",
        "lat": "12.9691593",
        "Geocoded Country": "India"
    },
    {
        "name": "Edison",
        "State": "NJ",
        "ZIP": "08820-1327",
        "Country": "United States",
        "lng": "-74.3396348",
        "lat": "40.6012151",
        "Geocoded Country": "United States"
    },
    {
        "name": "Princeton Junction",
        "State": "NJ",
        "ZIP": "8550",
        "Country": "United States",
        "lng": "-74.5640333",
        "lat": "40.2841654",
        "Geocoded Country": "United States"
    },
    {
        "name": "Fairport",
        "State": "NY",
        "ZIP": "14450-4125",
        "Country": "United States",
        "lng": "-77.4379514",
        "lat": "43.0598223",
        "Geocoded Country": "United States"
    },
    {
        "name": "Alexandria",
        "State": "Alexandria",
        "ZIP": "21524",
        "Country": "Egypt",
        "lng": "29.9264618",
        "lat": "31.2124522",
        "Geocoded Country": "Egypt"
    },
    {
        "name": "Wixams",
        "State": "Bedfordshire ",
        "ZIP": "MK42 6AN",
        "Country": "United Kingdom",
        "lng": "-0.4616339",
        "lat": "52.0901366",
        "Geocoded Country": "United Kingdom"
    },
    {
        "name": "Puttur",
        "State": "Karnataka",
        "ZIP": "574325",
        "Country": "INDIA",
        "lng": "75.2294999",
        "lat": "12.8101901",
        "Geocoded Country": "India"
    },
    {
        "name": "Jihlava",
        "State": "Kraj Vyso\u010dina",
        "ZIP": "586 01",
        "Country": "Czech Republic",
        "lng": "15.5656811",
        "lat": "49.4094833",
        "Geocoded Country": "Czechia"
    },
    {
        "name": "New Delhi",
        "State": "Delhi",
        "ZIP": "110048",
        "Country": "India",
        "lng": "77.2437436",
        "lat": "28.5438669",
        "Geocoded Country": "India"
    },
    {
        "name": "Wigston",
        "State": "Leicestershire",
        "ZIP": "LE18 3QL",
        "Country": "United Kingdom",
        "lng": "-1.0953477",
        "lat": "52.5912896",
        "Geocoded Country": "United Kingdom"
    },
    {
        "name": "Vizag",
        "State": "Andhra Pradesh ",
        "ZIP": "530013",
        "Country": "India",
        "lng": "83.3137344",
        "lat": "17.7364375",
        "Geocoded Country": "India"
    },
    {
        "name": "Pune",
        "State": "Maharashtra",
        "ZIP": "411057",
        "Country": "India",
        "lng": "73.7747502",
        "lat": "18.5903148",
        "Geocoded Country": "India"
    },
    {
        "name": "Fullarton",
        "State": "SA",
        "ZIP": "5063",
        "Country": "Australia",
        "lng": "138.6328806",
        "lat": "-34.9525158",
        "Geocoded Country": "Australia"
    },
    {
        "name": "Parakaduwa",
        "State": "Sabaragamuwa",
        "ZIP": "70550",
        "Country": "Sri Lanka",
        "lng": "80.2985969",
        "lat": "6.8171284",
        "Geocoded Country": "Sri Lanka"
    },
    {
        "name": "Santa Monica",
        "State": "CA",
        "ZIP": "90405-1559",
        "Country": "United States",
        "lng": "-118.4911912",
        "lat": "34.0194543",
        "Geocoded Country": "United States"
    },
    {
        "name": "Hazaribag",
        "State": "Jharkhand",
        "ZIP": "825301",
        "Country": "India",
        "lng": "85.3545816",
        "lat": "23.984191",
        "Geocoded Country": "India"
    },
    {
        "name": "Markham",
        "State": "Ontario",
        "ZIP": "L6B 1A8",
        "Country": "Canada",
        "lng": "-79.2333923",
        "lat": "43.8533581",
        "Geocoded Country": "Canada"
    },
    {
        "name": "Westerville",
        "State": "Ohio",
        "ZIP": "43081-1103",
        "Country": "United States",
        "lng": "-82.9679143",
        "lat": "40.1311952",
        "Geocoded Country": "United States"
    },
    {
        "name": "Alpharetta ",
        "State": "GA",
        "ZIP": "30022",
        "Country": "United States",
        "lng": "-84.2469081",
        "lat": "34.0568044",
        "Geocoded Country": "United States"
    },
    {
        "name": "Williston",
        "State": "Vermont",
        "ZIP": "5495",
        "Country": "United States",
        "lng": "-73.08053",
        "lat": "44.4449111",
        "Geocoded Country": "United States"
    },
    {
        "name": "Burlington",
        "State": "Ontario",
        "ZIP": "L7L 1A7",
        "Country": "Canada",
        "lng": "-79.7543356",
        "lat": "43.3541002",
        "Geocoded Country": "Canada"
    },
    {
        "name": "Wayland",
        "State": "Massachusetts",
        "ZIP": "1778",
        "Country": "United States",
        "lng": "-71.3661885",
        "lat": "42.3167209",
        "Geocoded Country": "United States"
    },
    {
        "name": "Ottawa",
        "State": "ON",
        "ZIP": "K2J 5P9",
        "Country": "Canada",
        "lng": "-75.7794375",
        "lat": "45.2729938",
        "Geocoded Country": "Canada"
    },
    {
        "name": "Mao",
        "State": "IB",
        "ZIP": "7701",
        "Country": "Spain",
        "lng": "4.2544986",
        "lat": "39.892346",
        "Geocoded Country": "Spain"
    },
    {
        "name": "Charlotte",
        "State": "NC",
        "ZIP": "28273",
        "Country": "United States",
        "lng": "-80.971955",
        "lat": "35.1529611",
        "Geocoded Country": "United States"
    },
    {
        "name": "Brzoza",
        "State": "Kujawsko-Pomorskie",
        "ZIP": "86-061",
        "Country": "Poland",
        "lng": "18.0065035",
        "lat": "53.0350441",
        "Geocoded Country": "Poland"
    },
    {
        "name": "Lahore",
        "State": "Punjab",
        "ZIP": "54000",
        "Country": "Pakistan",
        "lng": "74.406442",
        "lat": "31.4982905",
        "Geocoded Country": "Pakistan"
    },
    {
        "name": "Sammamish",
        "State": "Washington",
        "ZIP": "98074",
        "Country": "United States",
        "lng": "-122.0651545",
        "lat": "47.63893",
        "Geocoded Country": "United States"
    },
    {
        "name": "Jaipur",
        "State": "Rajasthan",
        "ZIP": "302001",
        "Country": "India",
        "lng": "75.801538",
        "lat": "26.9178916",
        "Geocoded Country": "India"
    },
    {
        "name": "New Caney",
        "State": "TX",
        "ZIP": "77357",
        "Country": "United States",
        "lng": "-95.2621386",
        "lat": "30.1901696",
        "Geocoded Country": "United States"
    },
    {
        "name": "Lewis Center",
        "State": "Ohio",
        "ZIP": "43035-7670",
        "Country": "United States",
        "lng": "-83.0163734",
        "lat": "40.2127682",
        "Geocoded Country": "United States"
    },
    {
        "name": "Saint-Quentin",
        "State": "Hauts-de-France",
        "ZIP": "2100",
        "Country": "France",
        "lng": "3.2546674",
        "lat": "49.827188",
        "Geocoded Country": "France"
    },
    {
        "name": "Los Olivos",
        "State": "Provincia de Lima",
        "ZIP": "15301",
        "Country": "Peru",
        "lng": "-77.0807505",
        "lat": "-11.9909591",
        "Geocoded Country": "Peru"
    },
    {
        "name": "Jamaica",
        "State": "NY",
        "ZIP": "11432",
        "Country": "USA",
        "lng": "-73.7979408",
        "lat": "40.721775",
        "Geocoded Country": "United States"
    },
    {
        "name": "Frederick",
        "State": "MD",
        "ZIP": "21703-2739",
        "Country": "United States",
        "lng": "-77.441968",
        "lat": "39.36478",
        "Geocoded Country": "United States"
    },
    {
        "name": "Kuala Lumpur",
        "State": "Wilayah Persekutuan Kuala Lumpur",
        "ZIP": "50480",
        "Country": "Malaysia",
        "lng": "101.6472366",
        "lat": "3.1642233",
        "Geocoded Country": "Malaysia"
    },
    {
        "name": "Morristown",
        "State": "NJ",
        "ZIP": "07960-3356",
        "Country": "United States",
        "lng": "-74.5441096",
        "lat": "40.819747",
        "Geocoded Country": "United States"
    },
    {
        "name": "Katy",
        "State": "TX",
        "ZIP": "77494-2715",
        "Country": "United States",
        "lng": "-95.8340003",
        "lat": "29.7238081",
        "Geocoded Country": "United States"
    },
    {
        "name": "Yenimahalle",
        "State": "Ankara",
        "ZIP": "6105",
        "Country": "Turkey",
        "lng": "32.6369921",
        "lat": "40.0061022",
        "Geocoded Country": "T\u00fcrkiye"
    },
    {
        "name": "DHANBAD",
        "State": "JHARKHAND",
        "ZIP": "828116",
        "Country": "India",
        "lng": "86.4264192",
        "lat": "23.7775915",
        "Geocoded Country": "India"
    },
    {
        "name": "lucknow",
        "State": "Uttar Pradesh",
        "ZIP": "193123",
        "Country": "india",
        "lng": "80.946166",
        "lat": "26.8466937",
        "Geocoded Country": "India"
    },
    {
        "name": "Fremont",
        "State": "California",
        "ZIP": "94539",
        "Country": "United States",
        "lng": "-121.9366946",
        "lat": "37.5195261",
        "Geocoded Country": "United States"
    },
    {
        "name": "Singapore",
        "State": "Singapore",
        "ZIP": "310200",
        "Country": "Singapore",
        "lng": "103.8511091",
        "lat": "1.3413981",
        "Geocoded Country": "Singapore"
    },
    {
        "name": "Bengaluru",
        "State": "Karnataka",
        "ZIP": "560100",
        "Country": "India",
        "lng": "77.6573938",
        "lat": "12.8482738",
        "Geocoded Country": "India"
    },
    {
        "name": "Lahore",
        "State": "Punjab",
        "ZIP": "54810",
        "Country": "Pakistan",
        "lng": "74.3701773",
        "lat": "31.5027619",
        "Geocoded Country": "Pakistan"
    },
    {
        "name": "Irvine",
        "State": "CA",
        "ZIP": "92618",
        "Country": "United States",
        "lng": "-117.700517",
        "lat": "33.69422",
        "Geocoded Country": "United States"
    },
    {
        "name": "Wheaton",
        "State": "IL",
        "ZIP": "60187-3925",
        "Country": "United States",
        "lng": "-88.1276641",
        "lat": "41.8690365",
        "Geocoded Country": "United States"
    },
    {
        "name": "Lucknow",
        "State": "Uttar Pradesh",
        "ZIP": "226017",
        "Country": "India",
        "lng": "80.868431",
        "lat": "26.8222582",
        "Geocoded Country": "India"
    },
    {
        "name": "Cupertino",
        "State": "CA",
        "ZIP": "95014",
        "Country": "United States",
        "lng": "-122.0201213",
        "lat": "37.3224499",
        "Geocoded Country": "United States"
    },
    {
        "name": "Orinda",
        "State": "CA",
        "ZIP": "94563-2410",
        "Country": "United States",
        "lng": "-122.1775575",
        "lat": "37.8931629",
        "Geocoded Country": "United States"
    },
    {
        "name": "Saint Augustine",
        "State": "FL",
        "ZIP": "32092",
        "Country": "United States",
        "lng": "-81.5095026",
        "lat": "30.0311905",
        "Geocoded Country": "United States"
    },
    {
        "name": "Richland",
        "State": "WA",
        "ZIP": "99352-4093",
        "Country": "United States",
        "lng": "-119.3036165",
        "lat": "46.2658336",
        "Geocoded Country": "United States"
    },
    {
        "name": "Frisco",
        "State": "TX",
        "ZIP": "75035-5549",
        "Country": "United States",
        "lng": "-96.7375563",
        "lat": "33.1754263",
        "Geocoded Country": "United States"
    },
    {
        "name": "Thousand Oaks",
        "State": "California",
        "ZIP": "91320",
        "Country": "United States",
        "lng": "-118.9694028",
        "lat": "34.1665946",
        "Geocoded Country": "United States"
    },
    {
        "name": "Norfolk",
        "State": "VA",
        "ZIP": "23518",
        "Country": "United States",
        "lng": "-76.2520299",
        "lat": "36.9265549",
        "Geocoded Country": "United States"
    },
    {
        "name": "Kennesaw",
        "State": "GA",
        "ZIP": "30152",
        "Country": "United States",
        "lng": "-84.7210417",
        "lat": "33.9652978",
        "Geocoded Country": "United States"
    },
    {
        "name": "Thousand Oaks",
        "State": "CA",
        "ZIP": "91320-4841",
        "Country": "United States",
        "lng": "-118.9595422",
        "lat": "34.1700051",
        "Geocoded Country": "United States"
    },
    {
        "name": "Windsor",
        "State": "Ontario",
        "ZIP": "N9G3C1",
        "Country": "Canada",
        "lng": "-82.9750986",
        "lat": "42.2425319",
        "Geocoded Country": "Canada"
    },
    {
        "name": "Ellicott name",
        "State": "MD",
        "ZIP": "21043-5449",
        "Country": "United States",
        "lng": "-76.8145496",
        "lat": "39.2668479",
        "Geocoded Country": "United States"
    },
    {
        "name": "Mid-Levels",
        "State": "Hong Kong",
        "ZIP": "0",
        "Country": "Hong Kong",
        "lng": "114.1564309",
        "lat": "22.275615",
        "Geocoded Country": "Hong Kong"
    },
    {
        "name": "Baltimore",
        "State": "MD",
        "ZIP": "21224-2910",
        "Country": "United States",
        "lng": "-76.5416613",
        "lat": "39.2887103",
        "Geocoded Country": "United States"
    },
    {
        "name": "Eltham",
        "State": "VIC",
        "ZIP": "3095",
        "Country": "Australia",
        "lng": "145.164878",
        "lat": "-37.7319471",
        "Geocoded Country": "Australia"
    },
    {
        "name": "Suwon-si",
        "State": "Gyeonggi-do",
        "ZIP": "16507",
        "Country": "South Korea",
        "lng": "127.0505156",
        "lat": "37.2906725",
        "Geocoded Country": "South Korea"
    },
    {
        "name": "Alpharetta",
        "State": "GA",
        "ZIP": "30022",
        "Country": "United States",
        "lng": "-84.2469081",
        "lat": "34.0568044",
        "Geocoded Country": "United States"
    },
    {
        "name": "Carlisle",
        "State": "MA",
        "ZIP": "1741",
        "Country": "United States",
        "lng": "-71.3297706",
        "lat": "42.5303564",
        "Geocoded Country": "United States"
    },
    {
        "name": "Fremont",
        "State": "CA",
        "ZIP": "94539",
        "Country": "United States",
        "lng": "-121.9367354",
        "lat": "37.5359819",
        "Geocoded Country": "United States"
    },
    {
        "name": "Boston",
        "State": "MA",
        "ZIP": "2128",
        "Country": "United States",
        "lng": "-71.0324272",
        "lat": "42.3713905",
        "Geocoded Country": "United States"
    },
    {
        "name": "Peterborough",
        "State": "East of England region",
        "ZIP": "PE1 2BY",
        "Country": "United Kingdom",
        "lng": "-0.2509739",
        "lat": "52.5842831",
        "Geocoded Country": "United Kingdom"
    },
    {
        "name": "Shoreview",
        "State": "MN",
        "ZIP": "55126-8402",
        "Country": "United States",
        "lng": "-93.1454496",
        "lat": "45.1172061",
        "Geocoded Country": "United States"
    },
    {
        "name": "Oceanside",
        "State": "CA",
        "ZIP": "92054-6105",
        "Country": "United States",
        "lng": "-117.342191",
        "lat": "33.1855293",
        "Geocoded Country": "United States"
    },
    {
        "name": "Ghaziabad",
        "State": "Uttar Pradesh",
        "ZIP": "201014",
        "Country": "India",
        "lng": "77.3716847",
        "lat": "28.6497721",
        "Geocoded Country": "India"
    },
    {
        "name": "Atlanta",
        "State": "GA",
        "ZIP": "30306-3164",
        "Country": "United States",
        "lng": "-84.3446648",
        "lat": "33.7976106",
        "Geocoded Country": "United States"
    },
    {
        "name": "Shelburne",
        "State": "Vermont",
        "ZIP": "5482",
        "Country": "USA",
        "lng": "-73.2270484",
        "lat": "44.3805509",
        "Geocoded Country": "United States"
    },
    {
        "name": "Mississauga",
        "State": "Ontario",
        "ZIP": "L5M 6J1",
        "Country": "Canada",
        "lng": "-79.7554488",
        "lat": "43.5834311",
        "Geocoded Country": "Canada"
    },
    {
        "name": "Vijayawada",
        "State": "Andhra Pradesh",
        "ZIP": "520011",
        "Country": "India",
        "lng": "80.6368539",
        "lat": "16.5259875",
        "Geocoded Country": "India"
    },
    {
        "name": "Ellicott name",
        "State": "MD",
        "ZIP": "21043",
        "Country": "United States",
        "lng": "-76.781192",
        "lat": "39.2522414",
        "Geocoded Country": "United States"
    },
    {
        "name": "Kabupaten Bekasi",
        "State": "Jawa Barat",
        "ZIP": "17214",
        "Country": "Indonesia",
        "lng": "106.9790368",
        "lat": "-6.158617",
        "Geocoded Country": "Indonesia"
    },
    {
        "name": "Tomball",
        "State": "Texas",
        "ZIP": "77375",
        "Country": "United States",
        "lng": "-95.5753363",
        "lat": "30.0184723",
        "Geocoded Country": "United States"
    },
    {
        "name": "Mount Pleasant ",
        "State": "TX",
        "ZIP": "75455",
        "Country": "United States",
        "lng": "-94.9832458",
        "lat": "33.1685867",
        "Geocoded Country": "United States"
    },
    {
        "name": "Casablanca",
        "State": "Casablanca-Settat",
        "ZIP": "20250",
        "Country": "Morocco",
        "lng": "-7.6437244",
        "lat": "33.6002979",
        "Geocoded Country": "Morocco"
    },
    {
        "name": "Judenau",
        "State": "Nieder\u00f6sterreich",
        "ZIP": "3441",
        "Country": "Austria",
        "lng": "16.008117",
        "lat": "48.2810405",
        "Geocoded Country": "Austria"
    },
    {
        "name": "Budapest",
        "State": "Budapest",
        "ZIP": "1016",
        "Country": "Hungary",
        "lng": "19.0428776",
        "lat": "47.4884403",
        "Geocoded Country": "Hungary"
    },
    {
        "name": "Hoshiarpur",
        "State": "Punjab",
        "ZIP": "144216",
        "Country": "India",
        "lng": "75.863699",
        "lat": "31.947944",
        "Geocoded Country": "India"
    },
    {
        "name": "Kanpur ",
        "State": "Uttar Pradesh ",
        "ZIP": "208010",
        "Country": "India",
        "lng": "80.3909937",
        "lat": "26.4308527",
        "Geocoded Country": "India"
    },
    {
        "name": "Johannesburg",
        "State": "Gauteng",
        "ZIP": "1684",
        "Country": "South Africa",
        "lng": "28.0807526",
        "lat": "-25.9948584",
        "Geocoded Country": "South Africa"
    },
    {
        "name": "Mohammadpur",
        "State": "Dhaka",
        "ZIP": "1207",
        "Country": "Bangladesh",
        "lng": "90.3589069",
        "lat": "23.756093",
        "Geocoded Country": "Bangladesh"
    },
    {
        "name": "SUPAUL",
        "State": "Bihar",
        "ZIP": "852125",
        "Country": "India",
        "lng": "86.9614763",
        "lat": "26.2968375",
        "Geocoded Country": "India"
    },
    {
        "name": "Singapore",
        "State": "Woodlands",
        "ZIP": "730614",
        "Country": "Singapore",
        "lng": "103.796226",
        "lat": "1.4346616",
        "Geocoded Country": "Singapore"
    },
    {
        "name": "Ottawa",
        "State": "ON",
        "ZIP": "K2J 0M6",
        "Country": "Canada",
        "lng": "-75.7273039",
        "lat": "45.2449795",
        "Geocoded Country": "Canada"
    },
    {
        "name": "Shelburne",
        "State": "VT",
        "ZIP": "05482-7480",
        "Country": "United States",
        "lng": "-73.2270484",
        "lat": "44.3805509",
        "Geocoded Country": "United States"
    },
    {
        "name": "Battaramulla",
        "State": "Western",
        "ZIP": "10120",
        "Country": "Sri Lanka",
        "lng": "79.939217",
        "lat": "6.9149298",
        "Geocoded Country": "Sri Lanka"
    },
    {
        "name": "Arlington",
        "State": "Texas",
        "ZIP": "76016",
        "Country": "United States",
        "lng": "-97.2036345",
        "lat": "32.6910432",
        "Geocoded Country": "United States"
    },
    {
        "name": "Sugar Hill",
        "State": "Georgia",
        "ZIP": "30518-7863",
        "Country": "United States",
        "lng": "-84.0816228",
        "lat": "34.0785843",
        "Geocoded Country": "United States"
    },
    {
        "name": "Richmond",
        "State": "TX",
        "ZIP": "77407",
        "Country": "United States",
        "lng": "-95.6986857",
        "lat": "29.7015558",
        "Geocoded Country": "United States"
    },
    {
        "name": "Ottawa",
        "State": "Ontario",
        "ZIP": "K2J 5P9",
        "Country": "Canada",
        "lng": "-75.7794375",
        "lat": "45.2729938",
        "Geocoded Country": "Canada"
    },
    {
        "name": "Annandale",
        "State": "VA",
        "ZIP": "22003-6012",
        "Country": "United States",
        "lng": "-77.191991",
        "lat": "38.8175372",
        "Geocoded Country": "United States"
    },
    {
        "name": "Tampa",
        "State": "FL",
        "ZIP": "33635-1556",
        "Country": "United States",
        "lng": "-82.6044109",
        "lat": "28.0376717",
        "Geocoded Country": "United States"
    },
    {
        "name": "Happy Valley",
        "State": "OREGON",
        "ZIP": "14055",
        "Country": "United States",
        "lng": "-122.5185708",
        "lat": "45.4524961",
        "Geocoded Country": "United States"
    },
    {
        "name": "Houston",
        "State": "TX",
        "ZIP": "77036",
        "Country": "US",
        "lng": "-95.5276361",
        "lat": "29.6976622",
        "Geocoded Country": "United States"
    },
    {
        "name": "Winter Park",
        "State": "FL",
        "ZIP": "32792-3813",
        "Country": "United States",
        "lng": "-81.2843118",
        "lat": "28.6124086",
        "Geocoded Country": "United States"
    },
    {
        "name": "Kigali ",
        "State": "Kigali ",
        "ZIP": "0",
        "Country": "Rwanda ",
        "lng": "30.1362236",
        "lat": "-1.9312023",
        "Geocoded Country": "Rwanda"
    },
    {
        "name": "Atlanta",
        "State": "GA",
        "ZIP": "30342",
        "Country": "United States",
        "lng": "-84.3754916",
        "lat": "33.8670252",
        "Geocoded Country": "United States"
    },
    {
        "name": "Leeds",
        "State": "West Yorkshire ",
        "ZIP": "LS167DA",
        "Country": "United Kingdom",
        "lng": "-1.6277078",
        "lat": "53.8518012",
        "Geocoded Country": "United Kingdom"
    },
    {
        "name": "Salt Lake name",
        "State": "UT",
        "ZIP": "84105",
        "Country": "United States",
        "lng": "-111.866506",
        "lat": "40.736618",
        "Geocoded Country": "United States"
    },
    {
        "name": "Markham",
        "State": "Ontario",
        "ZIP": "L3P2C6",
        "Country": "Canada",
        "lng": "-79.2607805",
        "lat": "43.884432",
        "Geocoded Country": "Canada"
    },
    {
        "name": "Gro\u00df Pankow (Prignitz)",
        "State": "Brandenburg",
        "ZIP": "16928",
        "Country": "Germany",
        "lng": "12.1507892",
        "lat": "53.0818233",
        "Geocoded Country": "Germany"
    },
    {
        "name": "Burdwan",
        "State": "West Bengal",
        "ZIP": "713101",
        "Country": "India",
        "lng": "87.8786214",
        "lat": "23.2350519",
        "Geocoded Country": "India"
    },
    {
        "name": "Surat",
        "State": "GJ",
        "ZIP": "394220",
        "Country": "India",
        "lng": "72.832102",
        "lat": "21.15779",
        "Geocoded Country": "India"
    },
    {
        "name": "Acireale",
        "State": "Catania",
        "ZIP": "95024",
        "Country": "Italy",
        "lng": "15.1453883",
        "lat": "37.6069729",
        "Geocoded Country": "Italy"
    },
    {
        "name": "Baltimore",
        "State": "Maryland",
        "ZIP": "21209",
        "Country": "United States",
        "lng": "-76.6697641",
        "lat": "39.3769747",
        "Geocoded Country": "United States"
    },
    {
        "name": "Anand",
        "State": "Gujarat",
        "ZIP": "388001",
        "Country": "India",
        "lng": "72.9756971",
        "lat": "22.5495132",
        "Geocoded Country": "India"
    },
    {
        "name": "Baku",
        "State": "Baku",
        "ZIP": "1000",
        "Country": "Azerbaijan",
        "lng": "49.8499697",
        "lat": "40.3742032",
        "Geocoded Country": "Azerbaijan"
    },
    {
        "name": "Bristol",
        "State": "England",
        "ZIP": "BS161PD",
        "Country": "United Kingdom",
        "lng": "-2.5162182",
        "lat": "51.5020675",
        "Geocoded Country": "United Kingdom"
    },
    {
        "name": "League name",
        "State": "TX",
        "ZIP": "77573",
        "Country": "United States",
        "lng": "-95.1506563",
        "lat": "29.493831",
        "Geocoded Country": "United States"
    },
    {
        "name": "Fort Lee",
        "State": "New Jersey",
        "ZIP": "7024",
        "Country": "United States",
        "lng": "-73.9819699",
        "lat": "40.8311036",
        "Geocoded Country": "United States"
    },
    {
        "name": "Kayseri",
        "State": "Kocasinan",
        "ZIP": "38000",
        "Country": "Turkey",
        "lng": "35.4692926",
        "lat": "38.724793",
        "Geocoded Country": "T\u00fcrkiye"
    },
    {
        "name": "Bengaluru",
        "State": "Karnataka",
        "ZIP": "560068",
        "Country": "India",
        "lng": "77.6348349",
        "lat": "12.8929668",
        "Geocoded Country": "India"
    },
    {
        "name": "Torrance",
        "State": "CA",
        "ZIP": "90504",
        "Country": "United States",
        "lng": "-118.3245293",
        "lat": "33.8750519",
        "Geocoded Country": "United States"
    },
    {
        "name": "Karachi",
        "State": "Sindh",
        "ZIP": "75300",
        "Country": "Pakistan",
        "lng": "67.1036613",
        "lat": "24.9251492",
        "Geocoded Country": "Pakistan"
    },
    {
        "name": "Wheelers Hill",
        "State": "VIC",
        "ZIP": "3150",
        "Country": "Australia",
        "lng": "145.1797353",
        "lat": "-37.9009105",
        "Geocoded Country": "Australia"
    },
    {
        "name": "Dhanbad",
        "State": "Jharkhand",
        "ZIP": "826005",
        "Country": "India",
        "lng": "86.466518",
        "lat": "23.807496",
        "Geocoded Country": "India"
    },
    {
        "name": "Patna",
        "State": "Bihar",
        "ZIP": "800014",
        "Country": "India",
        "lng": "85.0648052",
        "lat": "25.6112747",
        "Geocoded Country": "India"
    },
    {
        "name": "Palo del Colle",
        "State": "Puglia",
        "ZIP": "70027",
        "Country": "Italy",
        "lng": "16.702092",
        "lat": "41.050481",
        "Geocoded Country": "Italy"
    },
    {
        "name": "Milton",
        "State": "ON",
        "ZIP": "l6h0m1",
        "Country": "CA",
        "lng": "-79.8328423",
        "lat": "43.5011788",
        "Geocoded Country": "Canada"
    },
    {
        "name": "Wexford",
        "State": "PA",
        "ZIP": "15090-6840",
        "Country": "United States",
        "lng": "-80.1063897",
        "lat": "40.658541",
        "Geocoded Country": "United States"
    },
    {
        "name": "Barcelona",
        "State": "Barcelona",
        "ZIP": "8730",
        "Country": "Spain",
        "lng": "2.1826581",
        "lat": "41.4075012",
        "Geocoded Country": "Spain"
    },
    {
        "name": "Augsburg",
        "State": "BY",
        "ZIP": "86156",
        "Country": "Germany",
        "lng": "10.8588508",
        "lat": "48.3736919",
        "Geocoded Country": "Germany"
    },
    {
        "name": "Koh Samui",
        "State": "Surat Thani",
        "ZIP": "84320",
        "Country": "Thailand",
        "lng": "100.0247788",
        "lat": "9.544635",
        "Geocoded Country": "Thailand"
    },
    {
        "name": "Richmond",
        "State": "Texas",
        "ZIP": "77407",
        "Country": "United States",
        "lng": "-95.6887561",
        "lat": "29.6236518",
        "Geocoded Country": "United States"
    },
    {
        "name": "Roanoke",
        "State": "Virginia",
        "ZIP": "24018",
        "Country": "USA",
        "lng": "-80.0359795",
        "lat": "37.2253581",
        "Geocoded Country": "United States"
    },
    {
        "name": "Davao name",
        "State": "Davao del sur",
        "ZIP": "8000",
        "Country": "Philippines",
        "lng": "125.6155948",
        "lat": "7.1109557",
        "Geocoded Country": "Philippines"
    },
    {
        "name": "Burlington",
        "State": "Vermont",
        "ZIP": "5401",
        "Country": "USA",
        "lng": "-73.2204064",
        "lat": "44.4841727",
        "Geocoded Country": "United States"
    },
    {
        "name": "Christchurch",
        "State": "Canterbury",
        "ZIP": "8023",
        "Country": "New Zealand",
        "lng": "172.6456047",
        "lat": "-43.5527614",
        "Geocoded Country": "New Zealand"
    },
    {
        "name": "Cumming",
        "State": "Georgia",
        "ZIP": "30041",
        "Country": "United States",
        "lng": "-84.1640599",
        "lat": "34.1580186",
        "Geocoded Country": "United States"
    },
    {
        "name": "Bristol",
        "State": "Bristol",
        "ZIP": "BS8 4YF",
        "Country": "United Kingdom",
        "lng": "-2.6175616",
        "lat": "51.4495773",
        "Geocoded Country": "United Kingdom"
    },
    {
        "name": "Auckland",
        "State": "Auckland",
        "ZIP": "2019",
        "Country": "New Zealand",
        "lng": "174.9189715",
        "lat": "-36.9826345",
        "Geocoded Country": "New Zealand"
    },
    {
        "name": "East Windsor",
        "State": "New Jersey",
        "ZIP": "8520",
        "Country": "United States",
        "lng": "-74.549271",
        "lat": "40.2684254",
        "Geocoded Country": "United States"
    },
    {
        "name": "Suwanee",
        "State": "GA",
        "ZIP": "30024-1692",
        "Country": "United States",
        "lng": "-84.125851",
        "lat": "34.0690397",
        "Geocoded Country": "United States"
    },
    {
        "name": "Carnegie",
        "State": "VIC",
        "ZIP": "3163",
        "Country": "Australia",
        "lng": "145.0582167",
        "lat": "-37.9051726",
        "Geocoded Country": "Australia"
    },
    {
        "name": "Fayetteville",
        "State": "GA",
        "ZIP": "30215",
        "Country": "United States",
        "lng": "-84.500585",
        "lat": "33.4330939",
        "Geocoded Country": "United States"
    },
    {
        "name": "Cary",
        "State": "North Carolina",
        "ZIP": "27519",
        "Country": "USA",
        "lng": "-78.877961",
        "lat": "35.8012033",
        "Geocoded Country": "United States"
    },
    {
        "name": "Hlavn\u00ed m\u011bsto Praha",
        "State": "Hlavn\u00ed m\u011bsto Praha",
        "ZIP": "140 00",
        "Country": "Czech Republic",
        "lng": "14.4356729",
        "lat": "50.0488897",
        "Geocoded Country": "Czechia"
    },
    {
        "name": "Amsterdam",
        "State": "NH",
        "ZIP": "1102 MK",
        "Country": "Netherlands",
        "lng": "4.9502497",
        "lat": "52.3131194",
        "Geocoded Country": "Netherlands"
    },
    {
        "name": "Leicester",
        "State": "Leicestershire",
        "ZIP": "LE4 0SP",
        "Country": "United Kingdom",
        "lng": "-1.1538802",
        "lat": "52.6601805",
        "Geocoded Country": "United Kingdom"
    },
    {
        "name": "Westerville",
        "State": "OH",
        "ZIP": "43081-1103",
        "Country": "United States",
        "lng": "-82.9679143",
        "lat": "40.1311952",
        "Geocoded Country": "United States"
    },
    {
        "name": "Sangli",
        "State": "Maharashtra",
        "ZIP": "415414",
        "Country": "India",
        "lng": "74.261032",
        "lat": "17.0460523",
        "Geocoded Country": "India"
    },
    {
        "name": "Bengaluru",
        "State": "Karnataka",
        "ZIP": "560066",
        "Country": "India",
        "lng": "77.7136323",
        "lat": "12.955903",
        "Geocoded Country": "India"
    },
    {
        "name": "Clarendon Hills",
        "State": "Illinois",
        "ZIP": "60514-1131",
        "Country": "United States",
        "lng": "-87.9639507",
        "lat": "41.7977158",
        "Geocoded Country": "United States"
    },
    {
        "name": "Bhadrachalam",
        "State": "Telangana ",
        "ZIP": "507111",
        "Country": "India",
        "lng": "80.8966622",
        "lat": "17.6701205",
        "Geocoded Country": "India"
    },
    {
        "name": "Haeundae-gu",
        "State": "Busan",
        "ZIP": "48050",
        "Country": "South Korea",
        "lng": "129.1235351",
        "lat": "35.1788476",
        "Geocoded Country": "South Korea"
    },
    {
        "name": "Dhaka",
        "State": "Dhaka",
        "ZIP": "1216",
        "Country": "Bangladesh",
        "lng": "90.3726041",
        "lat": "23.7973226",
        "Geocoded Country": "Bangladesh"
    },
    {
        "name": "Kladno",
        "State": "St\u0159edo\u010desk\u00fd kraj",
        "ZIP": "272 01",
        "Country": "Czech Republic",
        "lng": "14.1086155",
        "lat": "50.1405065",
        "Geocoded Country": "Czechia"
    },
    {
        "name": "Zhubei name",
        "State": "Hsinchu County",
        "ZIP": "302007",
        "Country": "Taiwan",
        "lng": "121.0189455",
        "lat": "24.8333485",
        "Geocoded Country": "Taiwan"
    },
    {
        "name": "Praha",
        "State": "None",
        "ZIP": "14300",
        "Country": "Czech Republic",
        "lng": "14.417573",
        "lat": "50.0152269",
        "Geocoded Country": "Czechia"
    },
    {
        "name": "Ljubljana",
        "State": "Ljubljana",
        "ZIP": "1000",
        "Country": "Slovenia",
        "lng": "14.4986928",
        "lat": "46.0486168",
        "Geocoded Country": "Slovenia"
    },
    {
        "name": "Shanghai",
        "State": "Shanghai",
        "ZIP": "200051",
        "Country": "China",
        "lng": "121.39098",
        "lat": "31.20893",
        "Geocoded Country": "China"
    },
    {
        "name": "Berhampore",
        "State": "West Bengal",
        "ZIP": "742103",
        "Country": "India",
        "lng": "88.2570785",
        "lat": "24.1068648",
        "Geocoded Country": "India"
    },
    {
        "name": "Chonburi",
        "State": "Si Racha",
        "ZIP": "20110",
        "Country": "Thailand",
        "lng": "100.958951",
        "lat": "13.2281941",
        "Geocoded Country": "Thailand"
    },
    {
        "name": "Waterloo",
        "State": "ON",
        "ZIP": "N2T 1V7",
        "Country": "Canada",
        "lng": "-80.5554662",
        "lat": "43.4469604",
        "Geocoded Country": "Canada"
    },
    {
        "name": "Mukamira",
        "State": "Western Province",
        "ZIP": "0",
        "Country": "Rwanda",
        "lng": "29.5548661",
        "lat": "-1.5555609",
        "Geocoded Country": "Rwanda"
    },
    {
        "name": "Koh Samui",
        "State": "Surat Thani",
        "ZIP": "84320",
        "Country": "Thailand",
        "lng": "100.0247788",
        "lat": "9.544635",
        "Geocoded Country": "Thailand"
    },
    {
        "name": "SAN FRANCISCO",
        "State": "CA",
        "ZIP": "94122-3737",
        "Country": "United States",
        "lng": "-122.4194155",
        "lat": "37.7749295",
        "Geocoded Country": "United States"
    },
    {
        "name": "Andover",
        "State": "Massachusetts",
        "ZIP": "1810",
        "Country": "United States",
        "lng": "-71.1173481",
        "lat": "42.655206",
        "Geocoded Country": "United States"
    },
    {
        "name": "Prague 8",
        "State": "Prague",
        "ZIP": "18000",
        "Country": "Czech Republic",
        "lng": "14.472061",
        "lat": "50.1052468",
        "Geocoded Country": "Czechia"
    },
    {
        "name": "Indore",
        "State": "MP",
        "ZIP": "452018",
        "Country": "India",
        "lng": "75.8261587",
        "lat": "22.7355616",
        "Geocoded Country": "India"
    },
    {
        "name": "patna",
        "State": "Bihar",
        "ZIP": "801105",
        "Country": "India",
        "lng": "85.0543929",
        "lat": "25.5764419",
        "Geocoded Country": "India"
    },
    {
        "name": "Gurugram",
        "State": "Delhi",
        "ZIP": "122001",
        "Country": "India",
        "lng": "77.1024902",
        "lat": "28.7040592",
        "Geocoded Country": "India"
    },
    {
        "name": "Frankfurt am Main",
        "State": "HE",
        "ZIP": "60386",
        "Country": "Germany",
        "lng": "8.7435496",
        "lat": "50.1321588",
        "Geocoded Country": "Germany"
    },
    {
        "name": "Kirkland",
        "State": "WA",
        "ZIP": "98034",
        "Country": "United States",
        "lng": "-122.1998267",
        "lat": "47.7147227",
        "Geocoded Country": "United States"
    },
    {
        "name": "Santa Clara",
        "State": "California",
        "ZIP": "95051",
        "Country": "United States",
        "lng": "-122.0019487",
        "lat": "37.3334546",
        "Geocoded Country": "United States"
    },
    {
        "name": "Muzaffarpur",
        "State": "Bihar",
        "ZIP": "842003",
        "Country": "India",
        "lng": "85.3627694",
        "lat": "26.1328398",
        "Geocoded Country": "India"
    },
    {
        "name": "Helena",
        "State": "MT",
        "ZIP": "59602",
        "Country": "United States",
        "lng": "-112.0515582",
        "lat": "46.6935341",
        "Geocoded Country": "United States"
    },
    {
        "name": "Shelburne",
        "State": "VT",
        "ZIP": "05482-7480",
        "Country": "United States",
        "lng": "-73.2270484",
        "lat": "44.3805509",
        "Geocoded Country": "United States"
    },
    {
        "name": "Greater London",
        "State": "England",
        "ZIP": "SE13 5NL",
        "Country": "United Kingdom",
        "lng": "0.0008898",
        "lat": "51.4522478",
        "Geocoded Country": "United Kingdom"
    },
    {
        "name": "BARDHAMAN",
        "State": "West Bengal",
        "ZIP": "713422",
        "Country": "India",
        "lng": "88.1518169",
        "lat": "23.2988526",
        "Geocoded Country": "India"
    },
    {
        "name": "Brampton",
        "State": "Ontario",
        "ZIP": "L6Y0Z1",
        "Country": "Canada",
        "lng": "-79.7752998",
        "lat": "43.6544129",
        "Geocoded Country": "Canada"
    },
    {
        "name": "Seongnam-si",
        "State": "Gyeonggi-do",
        "ZIP": "13600",
        "Country": "South Korea",
        "lng": "127.1249591",
        "lat": "37.3684938",
        "Geocoded Country": "South Korea"
    },
    {
        "name": "Narnaul",
        "State": "Haryana",
        "ZIP": "123001",
        "Country": "India",
        "lng": "76.1050903",
        "lat": "28.0624265",
        "Geocoded Country": "India"
    },
    {
        "name": "Bengaluru",
        "State": "Karnataka",
        "ZIP": "560066",
        "Country": "India",
        "lng": "77.7136323",
        "lat": "12.955903",
        "Geocoded Country": "India"
    },
    {
        "name": "Lahore",
        "State": "Punjab",
        "ZIP": "54000",
        "Country": "Pakistan",
        "lng": "74.3214124",
        "lat": "31.5332157",
        "Geocoded Country": "Pakistan"
    },
    {
        "name": "Makawao",
        "State": "Hawaii",
        "ZIP": "96768",
        "Country": "United States",
        "lng": "-156.3103368",
        "lat": "20.853869",
        "Geocoded Country": "United States"
    },
    {
        "name": "Ashburn",
        "State": "Virginia",
        "ZIP": "20148",
        "Country": "United States",
        "lng": "-77.4996485",
        "lat": "38.9880812",
        "Geocoded Country": "United States"
    },
    {
        "name": "Cumming",
        "State": "Georgia",
        "ZIP": "30041",
        "Country": "USA",
        "lng": "-84.1711201",
        "lat": "34.1035159",
        "Geocoded Country": "United States"
    },
    {
        "name": "Westfield",
        "State": "Indiana",
        "ZIP": "46074",
        "Country": "United States",
        "lng": "-86.151637",
        "lat": "40.0153033",
        "Geocoded Country": "United States"
    },
    {
        "name": "Ellicott name",
        "State": "MD",
        "ZIP": "21043-5416",
        "Country": "United States",
        "lng": "-76.8154679",
        "lat": "39.2660787",
        "Geocoded Country": "United States"
    },
    {
        "name": "Lincolnshire",
        "State": "IL",
        "ZIP": "60069-3319",
        "Country": "United States",
        "lng": "-87.9052471",
        "lat": "42.1913666",
        "Geocoded Country": "United States"
    },
    {
        "name": "Weston",
        "State": "Florida",
        "ZIP": "33327",
        "Country": "United States",
        "lng": "-80.4073077",
        "lat": "26.1229214",
        "Geocoded Country": "United States"
    },
    {
        "name": "Broomfield",
        "State": "CO",
        "ZIP": "80023-4107",
        "Country": "United States",
        "lng": "-105.0296034",
        "lat": "39.9749162",
        "Geocoded Country": "United States"
    },
    {
        "name": "Golden",
        "State": "Colorado",
        "ZIP": "80401",
        "Country": "USA",
        "lng": "-105.2211707",
        "lat": "39.7487431",
        "Geocoded Country": "United States"
    },
    {
        "name": "San Jose",
        "State": "California",
        "ZIP": "95116",
        "Country": "United States",
        "lng": "-121.851822",
        "lat": "37.356411",
        "Geocoded Country": "United States"
    },
    {
        "name": "London",
        "State": "West London",
        "ZIP": "W128JD",
        "Country": "United Kingdom",
        "lng": "-0.2322631",
        "lat": "51.5058661",
        "Geocoded Country": "United Kingdom"
    },
    {
        "name": "High Wycombe",
        "State": "Buckinghamshire",
        "ZIP": "HP13 6UL",
        "Country": "United Kingdom",
        "lng": "-0.7319608",
        "lat": "51.6384621",
        "Geocoded Country": "United Kingdom"
    },
    {
        "name": "Karachi",
        "State": "Sindh",
        "ZIP": "74500",
        "Country": "Pakistan",
        "lng": "67.0923866",
        "lat": "24.917218",
        "Geocoded Country": "Pakistan"
    },
    {
        "name": "Binyamina-Giv'at Ada",
        "State": "Haifa District",
        "ZIP": "3057756",
        "Country": "Israel",
        "lng": "34.9548778",
        "lat": "32.5206163",
        "Geocoded Country": "Israel"
    },
    {
        "name": "Palo del Colle",
        "State": "Puglia",
        "ZIP": "70027",
        "Country": "Italy",
        "lng": "16.699252",
        "lat": "41.0572273",
        "Geocoded Country": "Italy"
    },
    {
        "name": "Southport ",
        "State": "Merseyside ",
        "ZIP": "PR8 4RY",
        "Country": "United Kingdom",
        "lng": "-3.0170247",
        "lat": "53.6247996",
        "Geocoded Country": "United Kingdom"
    },
    {
        "name": "Southport",
        "State": "Merseyside",
        "ZIP": "PR99DZ",
        "Country": "United Kingdom",
        "lng": "-2.9814891",
        "lat": "53.6515576",
        "Geocoded Country": "United Kingdom"
    },
    {
        "name": "Zwammerdam",
        "State": "ZH",
        "ZIP": "2471 AB",
        "Country": "Netherlands",
        "lng": "4.7295797",
        "lat": "52.1055277",
        "Geocoded Country": "Netherlands"
    },
    {
        "name": "Delhi",
        "State": "Delhi",
        "ZIP": "110034",
        "Country": "India",
        "lng": "77.1132117",
        "lat": "28.6914165",
        "Geocoded Country": "India"
    },
    {
        "name": "Saint-Georges",
        "State": "QC",
        "ZIP": "G5Y 6H3",
        "Country": "Canada",
        "lng": "-70.6803451",
        "lat": "46.1047813",
        "Geocoded Country": "Canada"
    },
    {
        "name": "Berlin",
        "State": "Berlin",
        "ZIP": "12487",
        "Country": "Germany",
        "lng": "13.4951432",
        "lat": "52.4408229",
        "Geocoded Country": "Germany"
    },
    {
        "name": "Bangalore",
        "State": "Karnataka",
        "ZIP": "560067",
        "Country": "India",
        "lng": "77.7619875",
        "lat": "13.0244172",
        "Geocoded Country": "India"
    },
    {
        "name": "North Stonington",
        "State": "CT",
        "ZIP": "6359",
        "Country": "United States",
        "lng": "-71.8900402",
        "lat": "41.4492919",
        "Geocoded Country": "United States"
    },
    {
        "name": "Shanghai",
        "State": "ShangHai",
        "ZIP": "200233",
        "Country": "China",
        "lng": "121.41106",
        "lat": "31.18044",
        "Geocoded Country": "China"
    },
    {
        "name": "sunnyvale",
        "State": "California",
        "ZIP": "94086-2102",
        "Country": "USA",
        "lng": "-122.0216301",
        "lat": "37.3695802",
        "Geocoded Country": "United States"
    },
    {
        "name": "Rajshahi",
        "State": "Rajshahi",
        "ZIP": "6206",
        "Country": "Bangladesh",
        "lng": "88.6003665",
        "lat": "24.3746497",
        "Geocoded Country": "Bangladesh"
    },
    {
        "name": "Edison",
        "State": "New Jersey",
        "ZIP": "8820",
        "Country": "United States",
        "lng": "-74.3705256",
        "lat": "40.5975139",
        "Geocoded Country": "United States"
    },
    {
        "name": "Clarksburg",
        "State": "MD",
        "ZIP": "20871",
        "Country": "US",
        "lng": "-77.2834961",
        "lat": "39.2443206",
        "Geocoded Country": "United States"
    },
    {
        "name": "Traunstein",
        "State": "BY",
        "ZIP": "83278",
        "Country": "Germany",
        "lng": "12.6281562",
        "lat": "47.8641318",
        "Geocoded Country": "Germany"
    },
    {
        "name": "Oakville",
        "State": "ON",
        "ZIP": "L6H 0y5",
        "Country": "Canada",
        "lng": "-79.7383742",
        "lat": "43.4914469",
        "Geocoded Country": "Canada"
    },
    {
        "name": "Monroe Township",
        "State": "NJ",
        "ZIP": "08831-5137",
        "Country": "United States",
        "lng": "-74.4669192",
        "lat": "40.3456921",
        "Geocoded Country": "United States"
    },
    {
        "name": "Grand Rapids",
        "State": "MI",
        "ZIP": "49508-3526",
        "Country": "United States",
        "lng": "-85.6295367",
        "lat": "42.8929715",
        "Geocoded Country": "United States"
    },
    {
        "name": "Austin",
        "State": "TX",
        "ZIP": "78739-2008",
        "Country": "United States",
        "lng": "-97.8946035",
        "lat": "30.193826",
        "Geocoded Country": "United States"
    },
    {
        "name": "Toronto",
        "State": "Ontario",
        "ZIP": "M1W3N6",
        "Country": "Canada",
        "lng": "-79.3184834",
        "lat": "43.8188779",
        "Geocoded Country": "Canada"
    },
    {
        "name": "Sunnyvale",
        "State": "CA",
        "ZIP": "94087-5022",
        "Country": "United States",
        "lng": "-121.9992321",
        "lat": "37.3411687",
        "Geocoded Country": "United States"
    },
    {
        "name": "El shorouk name",
        "State": "Cairo",
        "ZIP": "11837",
        "Country": "Egypt",
        "lng": "31.6538256",
        "lat": "30.1355081",
        "Geocoded Country": "Egypt"
    },
    {
        "name": "Effingham",
        "State": "Surrey",
        "ZIP": "KT24 5NS",
        "Country": "United Kingdom",
        "lng": "-0.3916217",
        "lat": "51.2679018",
        "Geocoded Country": "United Kingdom"
    },
    {
        "name": "Nairobi west",
        "State": "Nairobi",
        "ZIP": "200",
        "Country": "Kenya",
        "lng": "36.82732",
        "lat": "-1.3090447",
        "Geocoded Country": "Kenya"
    },
    {
        "name": "Dhupguri ",
        "State": "West Bengal",
        "ZIP": "735210",
        "Country": "India",
        "lng": "89.0112727",
        "lat": "26.5929905",
        "Geocoded Country": "India"
    },
    {
        "name": "Singapore",
        "State": "Singapore",
        "ZIP": "520225",
        "Country": "Singapore",
        "lng": "103.9572281",
        "lat": "1.3423933",
        "Geocoded Country": "Singapore"
    },
    {
        "name": "Gurgaon",
        "State": "Haryana",
        "ZIP": "122001",
        "Country": "India",
        "lng": "77.0592817",
        "lat": "28.4552061",
        "Geocoded Country": "India"
    },
    {
        "name": "Lahore",
        "State": "Punjab",
        "ZIP": "54770",
        "Country": "Pakistan",
        "lng": "74.3547922",
        "lat": "31.485774",
        "Geocoded Country": "Pakistan"
    },
    {
        "name": "Troy",
        "State": "MI",
        "ZIP": "48084",
        "Country": "United States of America",
        "lng": "-83.1741866",
        "lat": "42.574999",
        "Geocoded Country": "United States"
    },
    {
        "name": "Rancho Cucamonga",
        "State": "California",
        "ZIP": "91739",
        "Country": "United States",
        "lng": "-117.5370413",
        "lat": "34.1453177",
        "Geocoded Country": "United States"
    },
    {
        "name": "Sacramento",
        "State": "CA",
        "ZIP": "95822",
        "Country": "United States of America",
        "lng": "-121.5098264",
        "lat": "38.5172268",
        "Geocoded Country": "United States"
    },
    {
        "name": "Midlothian",
        "State": "Virginia",
        "ZIP": "23112",
        "Country": "USA",
        "lng": "-77.6423491",
        "lat": "37.4355405",
        "Geocoded Country": "United States"
    },
    {
        "name": "YUBA name",
        "State": "CA",
        "ZIP": "95991",
        "Country": "United States",
        "lng": "-121.6221803",
        "lat": "39.1080249",
        "Geocoded Country": "United States"
    },
    {
        "name": "New York",
        "State": "Woodbury",
        "ZIP": "11797",
        "Country": "United States",
        "lng": "-73.4779354",
        "lat": "40.8073679",
        "Geocoded Country": "United States"
    },
    {
        "name": "Colorado Springs",
        "State": "Colorado",
        "ZIP": "80920",
        "Country": "United States",
        "lng": "-104.7809235",
        "lat": "38.9499862",
        "Geocoded Country": "United States"
    },
    {
        "name": "Oakdale",
        "State": "Minnesota",
        "ZIP": "55128-4812",
        "Country": "United States",
        "lng": "-92.9455692",
        "lat": "44.9862806",
        "Geocoded Country": "United States"
    },
    {
        "name": "San Francisco",
        "State": "California",
        "ZIP": "94132",
        "Country": "United States",
        "lng": "-122.4691743",
        "lat": "37.7162858",
        "Geocoded Country": "United States"
    },
    {
        "name": "Indore",
        "State": "Madhya Pradesh",
        "ZIP": "452012",
        "Country": "India",
        "lng": "75.8312663",
        "lat": "22.6769656",
        "Geocoded Country": "India"
    },
    {
        "name": "Saratoga",
        "State": "CA",
        "ZIP": "95070",
        "Country": "United States",
        "lng": "-122.0374975",
        "lat": "37.2893883",
        "Geocoded Country": "United States"
    },
    {
        "name": "Oakville",
        "State": "ON",
        "ZIP": "L6H 7E3",
        "Country": "Canada",
        "lng": "-79.7249339",
        "lat": "43.4935082",
        "Geocoded Country": "Canada"
    },
    {
        "name": "Jamaica",
        "State": "NY",
        "ZIP": "11432",
        "Country": "US",
        "lng": "-73.8056255",
        "lat": "40.7113985",
        "Geocoded Country": "United States"
    },
    {
        "name": "New Delhi",
        "State": "DL",
        "ZIP": "110044",
        "Country": "India",
        "lng": "77.3351964",
        "lat": "28.5096568",
        "Geocoded Country": "India"
    },
    {
        "name": "Fishkill",
        "State": "NY",
        "ZIP": "12524-4900",
        "Country": "United States",
        "lng": "-73.8741581",
        "lat": "41.5398859",
        "Geocoded Country": "United States"
    },
    {
        "name": "Bukit Batok",
        "State": "Bukit Batok",
        "ZIP": "659802",
        "Country": "Singapore",
        "lng": "103.7560258",
        "lat": "1.3523464",
        "Geocoded Country": "Singapore"
    },
    {
        "name": "West Kelowna",
        "State": "BC",
        "ZIP": "V4T 2K3",
        "Country": "Canada",
        "lng": "-119.6236987",
        "lat": "49.8117573",
        "Geocoded Country": "Canada"
    },
    {
        "name": "West Riffa/Al Gharbi",
        "State": "Southern Governorate",
        "ZIP": "902",
        "Country": "Bahrain",
        "lng": "50.5420274",
        "lat": "26.12266",
        "Geocoded Country": "Bahrain"
    },
    {
        "name": "Orlov\u00e1",
        "State": "Moravskoslezsk\u00fd kraj",
        "ZIP": "735 14",
        "Country": "Czech Republic",
        "lng": "18.4296574",
        "lat": "49.874126",
        "Geocoded Country": "Czechia"
    },
    {
        "name": "Bengaluru ",
        "State": "Karnataka",
        "ZIP": "560067",
        "Country": "India",
        "lng": "77.7601696",
        "lat": "12.982181",
        "Geocoded Country": "India"
    },
    {
        "name": "Bang Khun Thian",
        "State": "Bangkok",
        "ZIP": "10150",
        "Country": "Thailand",
        "lng": "100.4301291",
        "lat": "13.6581439",
        "Geocoded Country": "Thailand"
    },
    {
        "name": "Harrison",
        "State": "AR",
        "ZIP": "72601",
        "Country": "United States",
        "lng": "-93.147969",
        "lat": "36.2664119",
        "Geocoded Country": "United States"
    },
    {
        "name": "Shimshit",
        "State": "North District",
        "ZIP": "1790600",
        "Country": "Israel",
        "lng": "35.2515104",
        "lat": "32.7310199",
        "Geocoded Country": "Israel"
    },
    {
        "name": "Los Angeles ",
        "State": "CA",
        "ZIP": "90024",
        "Country": "United States",
        "lng": "-118.4305967",
        "lat": "34.062658",
        "Geocoded Country": "United States"
    },
    {
        "name": "Racine",
        "State": "WI",
        "ZIP": "53404-3269",
        "Country": "United States",
        "lng": "-87.8005809",
        "lat": "42.7257982",
        "Geocoded Country": "United States"
    },
    {
        "name": "Bangkok",
        "State": "Bangkok",
        "ZIP": "10120",
        "Country": "Thailand",
        "lng": "100.5371709",
        "lat": "13.7025459",
        "Geocoded Country": "Thailand"
    },
    {
        "name": "Union name",
        "State": "CA",
        "ZIP": "94587-8025",
        "Country": "United States",
        "lng": "-122.0137293",
        "lat": "37.5977565",
        "Geocoded Country": "United States"
    },
    {
        "name": "Celina",
        "State": "Tennessee",
        "ZIP": "38551",
        "Country": "United States",
        "lng": "-85.547329",
        "lat": "36.593232",
        "Geocoded Country": "United States"
    },
    {
        "name": "Albertson",
        "State": "New York",
        "ZIP": "11507-1516",
        "Country": "United States",
        "lng": "-73.6620046",
        "lat": "40.7686726",
        "Geocoded Country": "United States"
    },
    {
        "name": "kicukiro",
        "State": "kigali",
        "ZIP": "0",
        "Country": "Rwanda",
        "lng": "30.11923",
        "lat": "-1.9704511",
        "Geocoded Country": "Rwanda"
    },
    {
        "name": "Mirigama",
        "State": "Western",
        "ZIP": "11200",
        "Country": "Sri Lanka",
        "lng": "80.1567664",
        "lat": "7.2271109",
        "Geocoded Country": "Sri Lanka"
    },
    {
        "name": "BAYSIDE",
        "State": "NY",
        "ZIP": "11361",
        "Country": "United States",
        "lng": "-73.7878085",
        "lat": "40.7692089",
        "Geocoded Country": "United States"
    },
    {
        "name": "Thessaloniki",
        "State": "Central Macedonia",
        "ZIP": "546 43",
        "Country": "Greece",
        "lng": "22.9565867",
        "lat": "40.6047719",
        "Geocoded Country": "Greece"
    },
    {
        "name": "Ma\u00f3",
        "State": "Illes balears",
        "ZIP": "7702",
        "Country": "Spain",
        "lng": "4.2674595",
        "lat": "39.8837718",
        "Geocoded Country": "Spain"
    },
    {
        "name": "Huntsville",
        "State": "AL",
        "ZIP": "35805",
        "Country": "United States",
        "lng": "-86.6558589",
        "lat": "34.7255101",
        "Geocoded Country": "United States"
    },
    {
        "name": "Milton",
        "State": "ON",
        "ZIP": "L9T 6V9",
        "Country": "Canada",
        "lng": "-79.8360426",
        "lat": "43.5153183",
        "Geocoded Country": "Canada"
    },
    {
        "name": "Bangalore",
        "State": "Karnataka ",
        "ZIP": "560061",
        "Country": "India",
        "lng": "77.5468539",
        "lat": "12.9192733",
        "Geocoded Country": "India"
    },
    {
        "name": "Hunenberg See",
        "State": "ZG",
        "ZIP": "6333",
        "Country": "Switzerland",
        "lng": "8.4482548",
        "lat": "47.1673947",
        "Geocoded Country": "Switzerland"
    },
    {
        "name": "Shaker Hts",
        "State": "Ohio",
        "ZIP": "44122-1922",
        "Country": "United States",
        "lng": "-81.5283593",
        "lat": "41.4807539",
        "Geocoded Country": "United States"
    },
    {
        "name": "Falls Church",
        "State": "VA",
        "ZIP": "22046-3233",
        "Country": "United States",
        "lng": "-77.1759984",
        "lat": "38.8896628",
        "Geocoded Country": "United States"
    },
    {
        "name": "Austin",
        "State": "Texas",
        "ZIP": "78717",
        "Country": "United States",
        "lng": "-97.7647354",
        "lat": "30.4966011",
        "Geocoded Country": "United States"
    },
    {
        "name": "Baltimore",
        "State": "Maryland",
        "ZIP": "21212",
        "Country": "United States",
        "lng": "-76.6239201",
        "lat": "39.3677928",
        "Geocoded Country": "United States"
    },
    {
        "name": "Chandigarh",
        "State": "Punjab",
        "ZIP": "140603",
        "Country": "India",
        "lng": "76.8340788",
        "lat": "30.6390343",
        "Geocoded Country": "India"
    },
    {
        "name": "Nasr name",
        "State": "Cairo Governorate",
        "ZIP": "4451039",
        "Country": "Egypt",
        "lng": "31.3193163",
        "lat": "30.0769697",
        "Geocoded Country": "Egypt"
    },
    {
        "name": "Toronto",
        "State": "Ontario",
        "ZIP": "m1v3r3",
        "Country": "Canada",
        "lng": "-79.2645279",
        "lat": "43.810679",
        "Geocoded Country": "Canada"
    },
    {
        "name": "Antelope",
        "State": "CA",
        "ZIP": "95843",
        "Country": "United States",
        "lng": "-121.3542913",
        "lat": "38.7085091",
        "Geocoded Country": "United States"
    },
    {
        "name": "Albuquerque",
        "State": "New Mexico",
        "ZIP": "87122",
        "Country": "United States",
        "lng": "-106.5171706",
        "lat": "35.1678526",
        "Geocoded Country": "United States"
    },
    {
        "name": "Hoffman Estates",
        "State": "IL",
        "ZIP": "60192-5608",
        "Country": "United States",
        "lng": "-88.1221491",
        "lat": "42.1008558",
        "Geocoded Country": "United States"
    },
    {
        "name": "San Francisco",
        "State": "California",
        "ZIP": "94122",
        "Country": "USA",
        "lng": "-122.4709326",
        "lat": "37.7550451",
        "Geocoded Country": "United States"
    },
    {
        "name": "Noida",
        "State": "Uttar Pradesh",
        "ZIP": "201305",
        "Country": "India",
        "lng": "77.3869452",
        "lat": "28.5632731",
        "Geocoded Country": "India"
    },
    {
        "name": "Mountain View",
        "State": "CA",
        "ZIP": "94040-1513",
        "Country": "United States",
        "lng": "-122.1001669",
        "lat": "37.4029468",
        "Geocoded Country": "United States"
    },
    {
        "name": "Troy",
        "State": "MI",
        "ZIP": "48098",
        "Country": "United States",
        "lng": "-83.1851905",
        "lat": "42.6105193",
        "Geocoded Country": "United States"
    },
    {
        "name": "Indianapolis",
        "State": "Indiana",
        "ZIP": "46208-3543",
        "Country": "United States",
        "lng": "-86.1580867",
        "lat": "39.839171",
        "Geocoded Country": "United States"
    },
    {
        "name": "Remlap",
        "State": "Alabama",
        "ZIP": "35133",
        "Country": "United States",
        "lng": "-86.5464244",
        "lat": "33.7932911",
        "Geocoded Country": "United States"
    },
    {
        "name": "Toronto",
        "State": "Ontario",
        "ZIP": "M2N 6V2",
        "Country": "Canada",
        "lng": "-79.41147",
        "lat": "43.775",
        "Geocoded Country": "Canada"
    },
    {
        "name": "Apex",
        "State": "North Carolina",
        "ZIP": "27523",
        "Country": "United States",
        "lng": "-78.9133609",
        "lat": "35.7536",
        "Geocoded Country": "United States"
    },
    {
        "name": "Edgware",
        "State": "Greater London",
        "ZIP": "HA89RU",
        "Country": "United Kingdom",
        "lng": "-0.2608972",
        "lat": "51.6178477",
        "Geocoded Country": "United Kingdom"
    },
    {
        "name": "Seoni",
        "State": "Madhya Pradesh",
        "ZIP": "480661",
        "Country": "India",
        "lng": "79.5434841",
        "lat": "22.0868691",
        "Geocoded Country": "India"
    },
    {
        "name": "Highland Park",
        "State": "IL",
        "ZIP": "60035",
        "Country": "US",
        "lng": "-87.792467",
        "lat": "42.1906475",
        "Geocoded Country": "United States"
    },
    {
        "name": "Lahore",
        "State": "punjab",
        "ZIP": "53400",
        "Country": "Pakistan",
        "lng": "74.3243451",
        "lat": "31.4664161",
        "Geocoded Country": "Pakistan"
    },
    {
        "name": "Mumbai",
        "State": "Maharastra",
        "ZIP": "400078",
        "Country": "India",
        "lng": "72.932818",
        "lat": "19.1535486",
        "Geocoded Country": "India"
    },
    {
        "name": "Alameda",
        "State": "California",
        "ZIP": "94502",
        "Country": "United States",
        "lng": "-122.2512966",
        "lat": "37.7363897",
        "Geocoded Country": "United States"
    },
    {
        "name": "Pune",
        "State": "Maharashtra",
        "ZIP": "411033",
        "Country": "India",
        "lng": "73.7650683",
        "lat": "18.6340128",
        "Geocoded Country": "India"
    },
    {
        "name": "Karlovo",
        "State": "Plovdiv",
        "ZIP": "4300",
        "Country": "Bulgaria",
        "lng": "24.8075506",
        "lat": "42.6464711",
        "Geocoded Country": "Bulgaria"
    },
    {
        "name": "Boston",
        "State": "Massachusetts",
        "ZIP": "02125-3450",
        "Country": "United States",
        "lng": "-71.0384184",
        "lat": "42.3161922",
        "Geocoded Country": "United States"
    },
    {
        "name": "Phuket",
        "State": "phuket",
        "ZIP": "83000",
        "Country": "thailand",
        "lng": "98.371468",
        "lat": "7.8697146",
        "Geocoded Country": "Thailand"
    },
    {
        "name": "Chula Vista",
        "State": "CA",
        "ZIP": "91915-1840",
        "Country": "United States",
        "lng": "-116.9508819",
        "lat": "32.6240456",
        "Geocoded Country": "United States"
    },
    {
        "name": "Napoli",
        "State": "Campania",
        "ZIP": "80139",
        "Country": "Italy",
        "lng": "14.2664932",
        "lat": "40.8544342",
        "Geocoded Country": "Italy"
    },
    {
        "name": "Dunedin",
        "State": "Otago",
        "ZIP": "9010",
        "Country": "New Zealand",
        "lng": "170.5040496",
        "lat": "-45.8466908",
        "Geocoded Country": "New Zealand"
    },
    {
        "name": "Norfolk",
        "State": "MA",
        "ZIP": "2056",
        "Country": "USA",
        "lng": "-71.337911",
        "lat": "42.1351236",
        "Geocoded Country": "United States"
    },
    {
        "name": "Berkshire",
        "State": "Slough",
        "ZIP": "SL1 2PH",
        "Country": "United Kingdom",
        "lng": "-0.6072713",
        "lat": "51.5074985",
        "Geocoded Country": "United Kingdom"
    },
    {
        "name": "Devon",
        "State": "England",
        "ZIP": "PL19 8BN",
        "Country": "United Kingdom",
        "lng": "-4.1593806",
        "lat": "50.5408806",
        "Geocoded Country": "United Kingdom"
    },
    {
        "name": "Thane",
        "State": "Maharashtra",
        "ZIP": "400607",
        "Country": "India",
        "lng": "72.9862279",
        "lat": "19.2599985",
        "Geocoded Country": "India"
    },
    {
        "name": "Hamburg",
        "State": "HH",
        "ZIP": "22549",
        "Country": "Germany",
        "lng": "9.8619606",
        "lat": "53.5807458",
        "Geocoded Country": "Germany"
    },
    {
        "name": "Kochi",
        "State": "Kerala",
        "ZIP": "682017",
        "Country": "India",
        "lng": "76.2966363",
        "lat": "9.991282",
        "Geocoded Country": "India"
    },
    {
        "name": "Bengaluru",
        "State": "Karnataka",
        "ZIP": "560015",
        "Country": "India",
        "lng": "77.5287117",
        "lat": "13.0521328",
        "Geocoded Country": "India"
    },
    {
        "name": "Wassenaar",
        "State": "ZH",
        "ZIP": "2242 LM",
        "Country": "Netherlands",
        "lng": "4.3954739",
        "lat": "52.1464676",
        "Geocoded Country": "Netherlands"
    },
    {
        "name": "Porsa",
        "State": "MP",
        "ZIP": "476115",
        "Country": "India",
        "lng": "78.372413",
        "lat": "26.6728972",
        "Geocoded Country": "India"
    },
    {
        "name": "Thoothukudi",
        "State": "TN",
        "ZIP": "628210",
        "Country": "India",
        "lng": "77.9967154",
        "lat": "8.4740696",
        "Geocoded Country": "India"
    },
    {
        "name": "Singapore",
        "State": "Singapore",
        "ZIP": "510221",
        "Country": "Singapore",
        "lng": "103.9613611",
        "lat": "1.3702694",
        "Geocoded Country": "Singapore"
    },
    {
        "name": "Koh Samui",
        "State": "Surat Thani",
        "ZIP": "84320",
        "Country": "Thailand",
        "lng": "100.0247788",
        "lat": "9.544635",
        "Geocoded Country": "Thailand"
    },
    {
        "name": "Irvine",
        "State": "CA",
        "ZIP": "92603",
        "Country": "United States",
        "lng": "-117.8374156",
        "lat": "33.6321502",
        "Geocoded Country": "United States"
    },
    {
        "name": "Sf\u00e2ntu Gheorghe",
        "State": "CV",
        "ZIP": "520063",
        "Country": "Romania",
        "lng": "25.7842164",
        "lat": "45.8618411",
        "Geocoded Country": "Romania"
    },
    {
        "name": "Debrecen",
        "State": "Hajd\u00fa-Bihar",
        "ZIP": "4031",
        "Country": "Hungary",
        "lng": "21.5845526",
        "lat": "47.5237698",
        "Geocoded Country": "Hungary"
    },
    {
        "name": "Sammamish",
        "State": "WA",
        "ZIP": "98074-7256",
        "Country": "United States",
        "lng": "-122.016306",
        "lat": "47.604752",
        "Geocoded Country": "United States"
    },
    {
        "name": "Sterling",
        "State": "Virginia",
        "ZIP": "20166",
        "Country": "United States",
        "lng": "-77.4954841",
        "lat": "38.9659393",
        "Geocoded Country": "United States"
    },